City,Country,Date,Lat,Lng,Max Temperature,Humidity,Cloudiness,Wind Speed
Mar del Plata,AR,1605322800,-38.0023,-57.5575,63.75,90,49,13.85
Butaritari,KI,1605322800,3.0707,172.7902,81.68,67,69,8.7
Flinders,AU,1605322800,-34.5833,150.8552,74.25,57,0,7.29
Qaanaaq,GL,1605322800,77.484,-69.3632,1.69,76,71,5.99
Port Elizabeth,ZA,1605322800,-33.918,25.5701,64.44,82,0,12.8
Busselton,AU,1605322800,-33.65,115.3333,65.53,75,54,18.1
Norman Wells,CA,1605322800,65.282,-126.8329,-1.84,84,87,4.21
Kaitangata,NZ,1605322800,-46.2817,169.8464,69.12,42,96,4.99
Chokurdakh,RU,1605322800,70.6333,147.9167,-16.28,89,32,4.21
Cape Town,ZA,1605322800,-33.9258,18.4232,60.57,79,69,3.47
Chippewa Falls,US,1605322800,44.9369,-91.3929,29.57,74,49,10.98
Katsuura,JP,1605322800,35.1333,140.3,64.17,52,0,9.06
Hermanus,ZA,1605322800,-34.4187,19.2345,60.42,82,85,8.46
Avarua,CK,1605322800,-21.2078,-159.775,77.18,76,38,15.86
Severo-Kuril'sk,RU,1605322800,50.6789,156.125,43.61,91,100,15.93
Kinablangan,PH,1605322800,7.6947,126.5503,85.73,68,87,6.73
Torbay,CA,1605322800,47.6666,-52.7314,36.57,78,87,7.85
Boralday,KZ,1605322800,43.3578,76.8594,33.67,87,95,1.79
Mandalgovi,MN,1605322800,45.7625,106.2708,35.56,71,0,8.05
Rikitea,PF,1605322800,-23.1203,-134.9692,75.78,79,36,11.97
Ushuaia,AR,1605322800,-54.8,-68.3,40.12,83,60,3.78
Punta Arenas,CL,1605322800,-53.15,-70.9167,39.63,84,47,16.58
Jamestown,US,1605322800,42.097,-79.2353,40.14,84,81,7.92
Brookings,US,1605322800,44.3114,-96.7984,31.84,84,1,18.25
Kedrovyy,RU,1605322800,56.1667,91.8167,20.57,94,44,5.64
Riyadh,SA,1605322800,24.6877,46.7219,60.89,75,0,6.35
Caravelas,BR,1605322800,-17.7125,-39.2481,75.27,83,56,9.62
Albany,US,1605322800,42.6001,-73.9662,40.55,86,51,5.03
Pahrump,US,1605322800,36.2083,-115.9839,57.33,27,23,10.51
Carnarvon,AU,1605322800,-24.8667,113.6333,73.99,80,82,13.15
Saint George,US,1605322800,37.1041,-113.5841,53.17,33,24,0.94
Bredasdorp,ZA,1605322800,-34.5322,20.0403,56.37,92,19,5.19
Port Hardy,CA,1605322800,50.6996,-127.4199,41.29,84,75,8.23
Hobart,AU,1605322800,-42.8794,147.3294,65.53,43,72,5.88
Castro,BR,1605322800,-24.7911,-50.0119,62.94,90,36,3.94
Dakar,SN,1605322800,14.6937,-17.4441,81.91,51,0,11.79
Alberton,CA,1605322800,46.8168,-64.0654,41.25,77,100,11.92
Saint-Philippe,RE,1605322800,-21.3585,55.7679,75.81,70,44,3.04
Saldanha,ZA,1605322800,-33.0117,17.9442,60.85,77,7,4.92
Ilulissat,GL,1605322800,69.2167,-51.1,16.39,69,99,7.16
Buala,SB,1605322800,-8.145,159.5921,86.54,66,25,3.56
Hamilton,US,1605322800,39.1834,-84.5333,41.52,66,17,4.23
Fortuna,US,1605322800,40.5982,-124.1573,49.06,92,74,3.22
George Town,MY,1605322800,5.4112,100.3354,82.27,84,48,2.71
Husavik,IS,1605322800,66.0449,-17.3389,33.89,91,85,11.07
La Primavera,CO,1605322800,5.4906,-70.4092,77.14,90,98,4.18
Tasiilaq,GL,1605322800,65.6145,-37.6368,16.45,64,60,5.57
Paraná,AR,1605322800,-31.732,-60.5238,75.78,47,51,9.93
Santa María del Oro,MX,1605322800,25.9333,-105.3667,65.28,31,32,7.47
Los Llanos de Aridane,ES,1605322800,28.6585,-17.9182,69.26,83,31,13.33
Hithadhoo,MV,1605322800,-0.6,73.0833,82.92,79,98,18.9
Hilo,US,1605322800,19.7297,-155.09,76.42,65,20,6.2
Hay River,CA,1605322800,60.8156,-115.7999,8.64,90,100,8.37
Namatanai,PG,1605322800,-3.6667,152.4333,85.21,70,48,7.4
La Ronge,CA,1605322800,55.1001,-105.2842,16.2,94,100,4.9
Hong Kong,HK,1605322800,22.2855,114.1577,73.85,58,94,13.82
Cabo San Lucas,MX,1605322800,22.8909,-109.9124,73.62,63,45,8.63
Mataura,NZ,1605322800,-46.1927,168.8643,70.84,44,98,12.82
Porto Franco,BR,1605322800,-6.3383,-47.3992,80.28,63,22,3.31
Nelson,NZ,1605322800,-41.2833,173.2833,71.11,43,0,3.96
Katobu,ID,1605322800,-4.9408,122.5276,91.54,57,14,3.96
Thompson,CA,1605322800,55.7435,-97.8558,19.69,98,95,6.62
Raja,SS,1605322800,8.4596,25.678,71.76,32,0,4.61
Bima,ID,1605322800,-8.4667,118.7167,97.75,49,1,2.98
Kapaa,US,1605322800,22.0752,-159.319,78.28,75,46,15.37
Makakilo City,US,1605322800,21.3469,-158.0858,80.4,60,38,19.35
Strelka,RU,1605322800,58.0728,93.0344,21.83,96,96,4.94
Zhalantun,CN,1605322800,48.0,122.7167,39.33,70,0,1.03
Bluff,NZ,1605322800,-46.6,168.3333,66.76,53,98,17.31
New Norfolk,AU,1605322800,-42.7826,147.0587,66.34,57,78,9.04
Atuona,PF,1605322800,-9.8,-139.0333,77.65,77,51,16.24
Quatre Cocos,MU,1605322800,-20.2078,57.7625,76.59,88,22,3.98
Tūkrah,LY,1605322800,32.5341,20.5791,63.75,74,8,2.55
Benguela,AO,1605322800,-12.5763,13.4055,75.67,80,81,3.69
Gwadar,PK,1605322800,25.1216,62.3254,73.2,61,0,7.29
Kahului,US,1605322800,20.8947,-156.47,78.6,58,30,13.29
Puerto Ayora,EC,1605322800,-0.7393,-90.3518,68.74,85,75,10.4
Havelock,US,1605322800,34.8791,-76.9013,59.77,83,10,4.65
Nikolskoye,RU,1605322800,59.7035,30.7861,32.61,91,42,4.72
Yellowknife,CA,1605322800,62.456,-114.3525,0.27,82,57,9.86
Port Blair,IN,1605322800,11.6667,92.75,83.8,80,76,17.69
Bintulu,MY,1605322800,3.1667,113.0333,83.97,83,68,3.13
Bam,IR,1605322800,29.106,58.357,52.86,74,93,11.3
Taoudenni,ML,1605322800,22.6783,-3.9836,73.35,21,65,12.93
Narsaq,GL,1605322800,60.9167,-46.05,22.23,74,100,1.36
Khatanga,RU,1605322800,71.9667,102.5,-15.68,89,97,7.78
Ancud,CL,1605322800,-41.8697,-73.8203,49.32,80,44,7.14
San Patricio,US,1605322800,28.017,-97.5169,74.64,84,10,8.32
São Filipe,CV,1605322800,14.8961,-24.4956,80.4,66,59,4.29
Hirara,JP,1605322800,24.8,125.2833,74.23,70,87,18.63
Port-Gentil,GA,1605322800,-0.7193,8.7815,77.52,87,98,8.16
Homer,US,1605322800,59.6425,-151.5483,35.29,75,90,6.64
Yangi Marg`ilon,UZ,1605322800,40.4272,71.7189,46.53,76,87,1.92
Myre,NO,1605322800,69.1036,15.9492,42.82,74,41,12.35
Yulara,AU,1605322800,-25.2406,130.9889,105.53,7,0,16.6
Ponoka,CA,1605322800,52.6768,-113.5815,21.96,84,87,7.34
Bhadrāchalam,IN,1605322800,17.6667,80.8833,76.93,79,1,2.33
Barrow,US,1605322800,71.2906,-156.7887,19.02,85,84,12.95
Lompoc,US,1605322800,34.6391,-120.4579,53.82,77,1,6.44
Avera,US,1605322800,33.194,-82.5271,60.67,56,1,6.69
Zhezkazgan,KZ,1605322800,47.8043,67.7144,26.33,93,100,15.17
Vao,NC,1605322800,-22.6667,167.4833,74.97,82,26,9.69
Vaini,TO,1605322800,-21.2,-175.2,79.99,77,70,11.77
Caconda,AO,1605322800,-13.7333,15.0667,61.02,97,100,2.06
Zhuanghe,CN,1605322800,39.7008,122.9911,51.24,49,62,5.17
Palauig,PH,1605322800,15.435,119.9045,86.52,66,55,2.64
Lebu,CL,1605322800,-37.6167,-73.65,51.73,89,9,9.06
Provideniya,RU,1605322800,64.3833,-173.3,20.61,90,27,9.44
Fairbanks,US,1605322800,64.8378,-147.7164,12.74,94,86,2.15
Pisco,PE,1605322800,-13.7,-76.2167,63.3,85,9,2.55
Mukō,JP,1605322800,34.9654,135.7041,63.77,45,10,8.14
Saint Paul Harbor,US,1605322800,57.79,-152.4072,36.57,63,10,19.51
North Bend,US,1605322800,43.4065,-124.2243,50.58,76,40,10.69
Turukhansk,RU,1605322800,65.8167,87.9833,-15.84,89,88,2.8
Kupang,ID,1605322800,-10.1667,123.5833,89.83,56,10,4.9
Kismayo,SO,1605322800,-0.3582,42.5454,78.94,78,0,7.25
Naze,JP,1605322800,28.3667,129.4833,74.17,79,40,14.97
Kaniama,CD,1605322800,-7.5667,24.1833,66.36,98,100,4.03
Yinchuan,CN,1605322800,38.4681,106.2731,52.18,65,1,3.67
Upernavik,GL,1605322800,72.7868,-56.1549,16.93,94,100,11.16
Cayenne,GF,1605322800,4.9333,-52.3333,79.86,91,95,9.82
Usta Muhammad,PK,1605322800,28.1794,68.0445,71.06,26,38,4.59
Monster,NL,1605322800,52.0258,4.175,52.54,87,100,10.47
Bethel,US,1605322800,41.3712,-73.414,40.96,92,26,5.66
Ahipara,NZ,1605322800,-35.1667,173.1667,66.92,55,0,6.31
Khovd,MN,1605322800,48.0056,91.6419,34.77,72,38,5.32
Saint Anthony,US,1605322800,45.0205,-93.218,31.89,80,33,12.68
Dom Pedrito,BR,1605322800,-30.9828,-54.6731,63.64,89,17,6.13
Ribeira Grande,PT,1605322800,38.5167,-28.7,66.16,89,92,12.8
Kavieng,PG,1605322800,-2.5744,150.7967,84.49,76,41,11.16
Cidreira,BR,1605322800,-30.1811,-50.2056,69.69,92,3,11.39
Kalur Kot,PK,1605322800,32.1564,71.2594,66.67,38,77,10.16
Bereket,TM,1605322800,39.2446,55.5154,41.31,64,1,2.46
Lavrentiya,RU,1605322800,65.5833,-171.0,24.19,93,76,15.28
Mae Chan,TH,1605322800,20.1467,99.8526,77.63,67,0,4.32
Astoria,US,1605322800,46.1879,-123.8313,47.97,67,50,22.32
Mayo,US,1605322800,38.8876,-76.5119,51.35,63,1,11.5
Lloydminster,CA,1605322800,53.2835,-110.0016,18.46,91,95,6.24
Pachuca,MX,1605322800,20.117,-98.7333,56.17,72,0,3.06
Tadine,NC,1605322800,-21.55,167.8833,78.51,71,58,4.74
Kyotera,UG,1605322800,-0.6156,31.5175,66.54,83,84,2.77
Tuktoyaktuk,CA,1605322800,69.4541,-133.0374,-3.75,88,80,13.0
East London,ZA,1605322800,-33.0153,27.9116,69.69,77,4,12.35
Betsiamites,CA,1605322800,48.9413,-68.646,36.05,79,95,9.17
Petropavlovsk-Kamchatskiy,RU,1605322800,53.0452,158.6483,35.85,78,86,4.45
Tual,ID,1605322800,-5.6667,132.75,84.63,75,25,8.39
Puerto Maldonado,PE,1605322800,-12.6,-69.1833,80.51,73,91,2.86
Formosa,AR,1605322800,-26.1775,-58.1781,76.77,53,0,4.41
São Félix do Xingu,BR,1605322800,-6.6447,-51.995,76.77,78,65,1.5
Cascais,PT,1605322800,38.6979,-9.4215,63.18,94,97,12.71
Shache,CN,1605322800,38.4167,77.2406,41.83,57,73,5.28
Garoowe,SO,1605322800,8.4054,48.4845,71.26,71,33,8.19
Wajir,KE,1605322800,1.7471,40.0573,76.6,81,2,9.84
Djougou,BJ,1605322800,9.7085,1.666,72.63,39,0,5.48
Ust-Maya,RU,1605322800,60.4167,134.5333,16.77,96,93,5.64
Luwuk,ID,1605322800,-0.9516,122.7875,88.0,58,26,3.67
Vila Franca do Campo,PT,1605322800,37.7167,-25.4333,61.79,87,57,4.16
Stokmarknes,NO,1605322800,68.5646,14.9108,39.18,71,25,10.54
Krasnosel'kup,RU,1605322800,65.7,82.4667,-15.39,89,18,4.43
Safi,MA,1605322800,32.2994,-9.2372,66.6,74,91,4.63
Payo,ID,1605322800,-3.7508,103.6372,90.66,74,96,1.79
Acajutla,SV,1605322800,13.5928,-89.8275,78.3,88,14,7.0
Kinlochleven,GB,1605322800,56.7115,-4.9661,45.14,90,95,4.47
Fairmont,US,1605322800,39.4851,-80.1426,42.53,84,2,3.6
Sistranda,NO,1605322800,63.7256,8.834,47.75,63,39,11.12
Ponta do Sol,PT,1605322800,32.6667,-17.1,69.12,83,87,10.6
Requena,ES,1605322800,39.4883,-1.1004,49.48,91,95,0.87
Biak,ID,1605322800,-0.9131,122.8766,86.56,62,21,3.06
Matamoros,MX,1605322800,25.5333,-103.25,72.57,25,3,1.43
Forsytheganj,BY,1605322800,52.6333,29.7333,37.29,94,100,8.93
Samarai,PG,1605322800,-10.6167,150.6667,81.61,68,3,8.68
Hofn,IS,1605322800,64.2539,-15.2082,41.11,68,89,12.66
Kruisfontein,ZA,1605322800,-34.0033,24.7314,62.13,67,4,10.94
Mahébourg,MU,1605322800,-20.4081,57.7,76.39,88,21,5.77
Port Alfred,ZA,1605322800,-33.5906,26.891,67.59,73,2,21.72
Matara,LK,1605322800,5.9485,80.5353,81.5,83,94,3.13
Aswān,EG,1605322800,24.0934,32.907,63.84,41,0,6.87
Puerto Escondido,MX,1605322800,15.85,-97.0667,81.72,72,50,3.69
Sfântu Gheorghe,RO,1605322800,45.8667,25.7833,38.05,82,69,1.1
Cherskiy,RU,1605322800,68.75,161.3,-8.34,88,100,6.69
Acapulco de Juárez,MX,1605322800,16.8634,-99.8901,80.76,77,23,4.54
Talnakh,RU,1605322800,69.4865,88.3972,-17.21,80,30,0.83
Lucea,JM,1605322800,18.451,-78.1736,81.01,81,33,12.3
Bwanga,TZ,1605322800,-3.0308,31.7601,62.6,93,42,0.85
Leshukonskoye,RU,1605322800,64.8989,45.7622,31.53,99,100,6.22
San Cristobal,VE,1605322800,7.7669,-72.225,68.41,91,100,0.34
Eureka,US,1605322800,40.8021,-124.1637,49.77,88,59,3.87
Harper,LR,1605322800,4.375,-7.7169,77.72,87,10,6.15
Bathsheba,BB,1605322800,13.2167,-59.5167,79.41,86,26,11.92
Ternate,ID,1605322800,0.8,127.4,85.51,69,43,1.68
Marshall,US,1605322800,34.3834,-86.3333,50.59,71,1,3.06
College,US,1605322800,64.8569,-147.8028,12.61,87,86,2.28
Cooma,AU,1605322800,-36.2333,149.1333,71.44,40,20,10.27
Yumen,CN,1605322800,40.2833,97.2,40.68,71,77,12.12
Itaueira,BR,1605322800,-7.6033,-43.0256,79.07,54,10,2.51
Klaksvík,FO,1605322800,62.2266,-6.589,47.82,77,57,30.71
Anderson,US,1605322800,34.5334,-82.6499,56.28,57,1,3.87
Arcata,US,1605322800,40.8665,-124.0828,48.85,88,56,2.21
Omboué,GA,1605322800,-1.5746,9.2618,74.01,89,96,3.85
Shestakovo,RU,1605322800,56.4915,103.96,20.16,95,88,3.24
Cam Ranh,VN,1605322800,11.9214,109.1591,83.19,67,59,5.06
Alyangula,AU,1605322800,-13.8483,136.4192,90.21,57,20,12.5
Tiksi,RU,1605322800,71.6872,128.8694,-5.46,92,98,2.89
Bambous Virieux,MU,1605322800,-20.3428,57.7575,76.48,88,22,5.26
Pilar,BR,1605322800,-9.5972,-35.9567,73.58,91,43,5.82
Tabou,CI,1605322800,4.423,-7.3528,78.06,87,25,6.53
Puerto Palomas,MX,1605322800,31.7667,-107.6167,60.73,35,17,7.94
Muros,ES,1605322800,42.7762,-9.0603,59.77,80,96,12.37
Saskylakh,RU,1605322800,71.9167,114.0833,-8.64,90,89,2.21
Broken Hill,AU,1605322800,-31.95,141.4333,83.08,21,0,9.13
Sosnovo-Ozerskoye,RU,1605322800,52.5249,111.5418,26.46,89,99,11.07
Nishihara,JP,1605322800,26.1842,127.7558,75.6,75,78,13.6
Marsh Harbour,BS,1605322800,26.5412,-77.0636,79.56,81,31,6.82
Måløy,NO,1605322800,61.9353,5.1136,47.21,82,96,22.19
Ginir,ET,1605322800,7.1333,40.7,54.36,67,53,5.53
Philadelphia,US,1605322800,39.9523,-75.1638,51.33,67,1,9.46
Kirksville,US,1605322800,40.1948,-92.5833,33.57,68,1,9.53
Bandundu Province,CD,1605322800,-3.3167,17.3667,70.95,97,100,7.43
Sept-Îles,CA,1605322800,50.2001,-66.3821,35.91,84,98,6.93
Sémbé,CG,1605322800,1.6481,14.5806,72.82,84,100,2.59
Assiniboia,CA,1605322800,49.6334,-105.9845,35.04,79,82,17.47
Rassvet,RU,1605322800,46.8333,40.75,30.9,87,3,7.76
Dikson,RU,1605322800,73.5069,80.5464,4.69,94,99,22.95
Vallenar,CL,1605322800,-28.5708,-70.7581,55.56,74,71,1.19
Dunedin,NZ,1605322800,-45.8742,170.5036,68.0,53,39,3.31
Sheikh Dannun,IL,1605322800,32.9943,35.1479,70.14,45,0,8.34
Srednekolymsk,RU,1605322800,67.45,153.6833,-5.42,88,100,1.5
Kaeo,NZ,1605322800,-35.1,173.7833,69.22,50,0,7.9
Cowra,AU,1605322800,-33.8333,148.6833,74.39,51,1,9.64
Makkah al Mukarramah,SA,1605322800,21.4267,39.8261,74.62,63,0,3.09
Helmsdale,GB,1605322800,58.1168,-3.6517,46.17,78,40,17.56
Hervey Bay,AU,1605322800,-25.2986,152.8535,80.92,62,38,20.36
Pascagoula,US,1605322800,30.3658,-88.5561,63.88,74,1,6.93
Ustynivka,UA,1605322800,47.9551,32.5367,39.7,70,49,3.51
Nioro,GM,1605322800,13.35,-15.75,73.76,25,0,1.34
Vung Tau,VN,1605322800,10.346,107.0843,79.05,80,86,3.58
Zaozhuang,CN,1605322800,34.8647,117.5542,62.37,73,55,10.22
Mexico,PH,1605322800,15.0646,120.7198,87.49,70,76,10.11
North Las Vegas,US,1605322800,36.1989,-115.1175,60.71,24,17,9.28
Grand Gaube,MU,1605322800,-20.0064,57.6608,76.98,84,3,5.39
Huarmey,PE,1605322800,-10.0681,-78.1522,63.7,84,73,8.43
São João da Barra,BR,1605322800,-21.6403,-41.0511,73.58,94,99,8.39
Rundu,NA,1605322800,-17.9333,19.7667,69.42,66,69,4.18
Kutum,SD,1605322800,14.2,24.6667,60.4,32,50,11.1
Bodden Town,KY,1605322800,19.2833,-81.25,82.85,81,25,17.4
Bengkulu,ID,1605322800,-3.8004,102.2655,86.02,74,86,1.7
Westport,US,1605322800,41.1415,-73.3579,46.53,80,1,9.55
Hasaki,JP,1605322800,35.7333,140.8333,61.92,49,0,14.2
Coyhaique,CL,1605322800,-45.5752,-72.0662,45.12,75,31,8.48
Leningradskiy,RU,1605322800,69.3833,178.4167,8.06,91,84,12.35
Vila Velha,BR,1605322800,-20.3297,-40.2925,74.93,87,59,12.46
Ippy,CF,1605322800,6.2679,21.2247,69.1,72,35,2.93
Orlik,RU,1605322800,52.5178,99.825,15.13,88,98,0.38
Tongchuanshi,CN,1605322800,35.0806,109.0897,54.52,54,0,6.31
Waipawa,NZ,1605322800,-41.4122,175.5153,63.16,61,0,19.95
Brae,GB,1605322800,60.3964,-1.353,48.69,72,45,23.96
Kaduqli,SD,1605322800,11.0167,29.7167,74.55,20,5,11.34
Batavia,US,1605322800,41.85,-88.3126,30.81,79,1,4.03
Brigantine,US,1605322800,39.4101,-74.3646,51.91,79,1,13.49
Toora-Khem,RU,1605322800,52.4675,96.11,18.46,89,46,1.43
Kununurra,AU,1605322800,-15.7667,128.7333,102.96,43,26,12.82
Torres,BR,1605322800,-29.3353,-49.7269,68.31,95,11,1.9
Idlib,SY,1605322800,35.9306,36.6339,56.43,80,49,3.2
Nouadhibou,MR,1605322800,20.931,-17.0347,74.75,47,42,11.99
Teya,RU,1605322800,60.3778,92.6267,12.18,94,93,3.76
Mahon,ES,1605322800,39.8885,4.2658,66.24,86,64,9.4
Geraldton,AU,1605322800,-28.7667,114.6,70.41,69,47,15.1
Mazamet,FR,1605322800,43.49,2.373,55.62,78,2,14.32
Codrington,AU,1605322800,-38.2667,141.9667,59.47,66,47,9.13
San Quintín,MX,1605322800,30.4833,-115.95,63.72,66,0,13.67
Mogzon,RU,1605322800,51.7435,111.9606,29.35,93,100,7.49
Sur,OM,1605322800,22.5667,59.5289,74.66,46,0,3.91
Aracati,BR,1605322800,-4.5617,-37.7697,81.23,72,1,13.4
Alta,NO,1605322800,69.9689,23.2717,36.34,83,48,20.8
Lata,PT,1605322800,40.1629,-8.3327,55.44,88,90,4.34
Coolum Beach,AU,1605322800,-26.5333,153.1,86.85,48,2,12.28
Yerbogachën,RU,1605322800,61.2767,108.0108,12.18,93,100,12.15
Kumul,CN,1605322800,42.8,93.45,43.99,65,74,4.41
Trelew,AR,1605322800,-43.249,-65.3051,68.38,32,78,11.3
Itiruçu,BR,1605322800,-13.5317,-40.1503,66.36,95,73,7.61
Cividale del Friuli,IT,1605322800,46.0931,13.4275,47.7,89,88,2.66
Port Macquarie,AU,1605322800,-31.4333,152.9167,81.03,55,14,11.77
Maputo,MZ,1605322800,-25.9653,32.5892,66.22,76,0,8.41
‘Āhuimanu,US,1605322800,21.4447,-157.8378,79.16,69,22,19.08
Baní,DO,1605322800,18.2833,-70.3333,76.15,84,83,11.32
Clearwater,US,1605322800,27.9659,-82.8001,75.13,82,12,12.84
Meulaboh,ID,1605322800,4.1363,96.1285,79.48,86,100,3.87
Naugachhia,IN,1605322800,25.4,87.1,75.51,45,0,4.34
Andenes,NO,1605322800,69.3143,16.1194,43.45,75,47,17.07
Coahuayana Viejo,MX,1605322800,18.7333,-103.6833,75.97,81,47,1.92
Esperance,AU,1605322800,-33.8667,121.9,68.38,73,82,12.84
Altamira,BR,1605322800,-3.2033,-52.2064,75.78,91,72,2.46
Rocha,UY,1605322800,-34.4833,-54.3333,61.34,97,52,1.66
Camacha,PT,1605322800,33.0833,-16.3333,68.61,91,61,22.21
Shelburne,CA,1605322800,44.0787,-80.2041,33.51,86,69,12.5
Bella Union,UY,1605322800,-30.2752,-57.6007,69.13,65,0,10.25
Taltal,CL,1605322800,-25.4,-70.4833,57.67,75,15,3.02
Rawson,AR,1605322800,-43.3002,-65.1023,65.68,40,55,8.7
Doha,QA,1605322800,25.2867,51.5333,76.35,80,20,12.77
Mahajanga,MG,1605322800,-15.7167,46.3167,78.69,75,11,2.59
Morant Bay,JM,1605322800,17.8815,-76.4093,79.45,85,69,11.39
Port Shepstone,ZA,1605322800,-30.7414,30.455,68.36,88,27,16.44
Rio Claro,BR,1605322800,-22.4114,-47.5614,69.22,93,21,0.81
Port Augusta,AU,1605322800,-32.5,137.7667,90.63,31,0,10.94
Cortez,US,1605322800,37.3489,-108.5859,38.84,55,11,6.33
Diego de Almagro,CL,1605322800,-26.3667,-70.05,53.94,52,0,1.61
Sovetskiy,RU,1605322800,61.3614,63.5842,11.28,90,43,6.76
Faanui,PF,1605322800,-16.4833,-151.75,80.13,73,7,5.91
Bahía Honda,CU,1605322800,22.9036,-83.1592,77.63,88,12,8.84
Nkowakowa,ZA,1605322800,-23.8878,30.2871,62.87,47,29,1.63
Tarumã,BR,1605322800,-22.7467,-50.5772,76.55,52,19,1.79
Bassano,CA,1605322800,50.7834,-112.4685,31.24,92,100,10.22
Vestmannaeyjar,IS,1605322800,63.4427,-20.2734,38.28,78,1,21.85
Coyah,GN,1605322800,9.75,-13.4167,72.59,65,5,3.51
Paraíso,CR,1605322800,9.8383,-83.8656,66.06,93,53,1.68
Wanning,CN,1605322800,18.8003,110.3967,74.43,89,100,22.62
Umeå,SE,1605322800,63.8284,20.2597,42.75,90,87,14.23
Padang,ID,1605322800,-0.9492,100.3543,86.88,68,73,2.64
Tautira,PF,1605322800,-17.7333,-149.15,82.11,76,25,11.74
Lipari,IT,1605322800,38.4674,14.954,65.79,72,0,5.21
Sirte,LY,1605322800,31.2089,16.5887,67.41,71,25,3.98
Kalach-na-Donu,RU,1605322800,48.691,43.5264,29.77,94,25,4.12
Fare,PF,1605322800,-16.7,-151.0167,80.8,73,0,6.46
Umm Kaddadah,SD,1605322800,13.6017,26.6876,68.77,24,0,17.02
Uribia,CO,1605322800,11.7139,-72.266,78.58,84,87,7.27
Kérouané,GN,1605322800,9.2667,-9.0167,66.79,45,0,2.19
Amuntai,ID,1605322800,-2.4177,115.2494,87.3,74,26,2.44
Lucapa,AO,1605322800,-8.4192,20.7447,65.62,100,100,3.02
San Andrés,CO,1605322800,12.5847,-81.7006,83.48,80,57,19.06
Ballina,AU,1605322800,-28.8667,153.5667,85.75,50,6,10.31
Sitka,US,1605322800,57.0531,-135.33,37.0,83,87,6.04
Kirakira,SB,1605322800,-10.4544,161.9205,85.84,67,46,3.74
Longyearbyen,SJ,1605322800,78.2186,15.6401,29.55,83,87,7.29
Constitución,CL,1605322800,-35.3333,-72.4167,53.42,88,15,7.96
Chapais,CA,1605322800,49.7834,-74.8492,31.15,96,87,2.59
Nyurba,RU,1605322800,63.2842,118.3319,12.83,95,99,4.68
Mount Gambier,AU,1605322800,-37.8333,140.7667,61.18,62,95,5.37
Lázaro Cárdenas,MX,1605322800,17.9583,-102.2,78.67,81,7,3.85
Chui,UY,1605322800,-33.6971,-53.4616,62.65,96,14,3.22
Hambantota,LK,1605322800,6.1241,81.1185,81.3,88,59,5.46
Dalvik,IS,1605322800,65.9702,-18.5286,34.74,90,94,7.38
Karksi-Nuia,EE,1605322800,58.1033,25.5628,36.21,88,100,6.08
San Luis de la Paz,MX,1605322800,21.3,-100.5167,64.29,59,0,5.77
Dhāna,IN,1605322800,23.75,78.85,73.22,76,4,7.43
Dingle,PH,1605322800,10.9995,122.6711,86.05,80,16,11.74
Dayong,CN,1605322800,25.0209,118.2898,74.71,59,74,10.74
Sola,VU,1605322800,-13.8833,167.55,84.74,81,86,11.95
Beira,MZ,1605322800,-19.8436,34.8389,71.76,72,18,0.98
Te Anau,NZ,1605322800,-45.4167,167.7167,61.27,59,100,10.04
Ijūin,JP,1605322800,31.6167,130.4,68.92,59,10,6.13
Diamantino,BR,1605322800,-14.4086,-56.4461,75.76,80,15,3.49
Egvekinot,RU,1605322800,66.3167,-179.1667,6.55,91,9,14.7
Robertsport,LR,1605322800,6.7533,-11.3686,78.94,85,0,1.3
Zhigansk,RU,1605322800,66.7697,123.3711,9.1,95,86,4.0
Yar-Sale,RU,1605322800,66.8333,70.8333,-4.4,91,0,4.34
Gamba,GA,1605322800,-2.65,10.0,75.02,92,99,2.91
Deputatsky,RU,1605322800,69.3,139.9,-13.31,88,0,1.45
Northam,GB,1605322800,51.0333,-4.2167,51.62,91,100,12.84
Plettenberg Bay,ZA,1605322800,-34.0527,23.3716,63.36,64,13,8.16
Guerrero Negro,MX,1605322800,27.9769,-114.0611,65.1,70,0,12.64
Caxias,PT,1605322800,38.7031,-9.2767,62.8,94,87,9.31
Leh,IN,1605322800,34.1667,77.5833,32.74,64,55,3.65
Billings Metropolitan Area,US,1605322800,45.7833,-108.5007,36.59,67,87,4.36
Mehamn,NO,1605322800,71.0357,27.8492,35.19,85,1,11.12
Seymchan,RU,1605322800,62.8833,152.4333,-10.66,88,98,0.89
Arak,IR,1605322800,34.0917,49.6892,37.42,85,24,1.25
Toppenish,US,1605322800,46.3774,-120.3087,43.97,59,1,17.0
Sarangani,PH,1605322800,5.4033,125.4636,84.4,72,55,18.79
Alice Springs,AU,1605322800,-23.7,133.8833,103.32,11,0,9.46
Belmonte,BR,1605322800,-15.8631,-38.8828,76.21,82,20,11.23
Veydelevka,RU,1605322800,50.1521,38.4492,30.97,93,93,2.77
Nanortalik,GL,1605322800,60.1432,-45.2371,28.92,87,100,8.01
Outlook,CA,1605322800,51.5001,-107.0513,26.37,87,94,8.14
Mahon,ES,1605322800,39.8885,4.2658,66.24,86,64,9.4
Anadyr,RU,1605322800,64.75,177.4833,7.97,85,49,14.29
Freeport,US,1605322800,40.6576,-73.5832,52.12,72,1,13.65
Japura,ID,1605322800,-0.3167,102.35,88.36,78,96,1.19
Tevriz,RU,1605322800,57.509,72.4042,22.69,97,99,5.88
Pocosol,CR,1605322800,10.3667,-84.6167,70.86,93,46,1.3
Mercedes,AR,1605322800,-34.6515,-59.4307,67.19,75,55,9.26
Isangel,VU,1605322800,-19.55,169.2667,82.58,72,38,4.45
Yaransk,RU,1605322800,57.3033,47.8861,22.21,97,85,3.89
Atasū,KZ,1605322800,48.6814,71.6433,21.27,94,98,9.33
Iisalmi,FI,1605322800,63.5592,27.1907,36.95,87,95,7.18
Asău,RO,1605322800,46.4333,26.4,37.45,87,13,3.74
Seoul,KR,1605322800,37.5683,126.9778,59.99,58,9,4.16
Balsas,BR,1605322800,-7.5325,-46.0356,80.31,56,23,1.32
Komarikhinskiy,RU,1605322800,58.0979,57.1163,14.11,90,38,3.65
Den Helder,NL,1605322800,52.9599,4.7593,52.11,85,95,10.94
Beringovskiy,RU,1605322800,63.05,179.3167,15.53,94,98,17.07
Hammerfest,NO,1605322800,70.6634,23.6821,36.07,76,28,15.3
Curup,ID,1605322800,-3.4667,102.5333,82.31,78,92,1.79
Marawi,PH,1605322800,7.9986,124.2928,83.3,71,26,5.12
Touros,BR,1605322800,-5.1989,-35.4608,79.43,84,35,14.14
Inhambane,MZ,1605322800,-23.865,35.3833,67.95,74,0,5.93
Bonoua,CI,1605322800,5.2741,-3.595,76.5,89,20,1.99
Chumikan,RU,1605322800,54.7183,135.315,25.68,93,69,10.89
Rāyagada,IN,1605322800,19.1667,83.4167,78.15,70,0,2.75
Bafoulabé,ML,1605322800,13.8065,-10.8321,74.52,20,0,3.49
Mossamedes,AO,1605322800,-15.1961,12.1522,70.83,77,61,10.04
Álamos,MX,1605322800,27.0167,-108.9333,68.02,57,4,2.68
Port Lincoln,AU,1605322800,-34.7333,135.8667,68.36,60,2,11.36
Arraial do Cabo,BR,1605322800,-22.9661,-42.0278,73.62,94,100,4.83
Itoman,JP,1605322800,26.1247,127.6694,76.01,71,76,15.55
Baykit,RU,1605322800,61.67,96.37,9.79,92,92,4.16
Bireun,ID,1605322800,5.203,96.7009,82.89,77,86,5.23
Amudat,UG,1605322800,1.95,34.95,69.49,64,11,4.97
Tanout,NE,1605322800,14.9709,8.8879,72.68,27,2,13.42
Vostok,RU,1605322800,46.4856,135.8833,31.26,95,31,3.42
Bambanglipuro,ID,1605322800,-7.95,110.2833,89.13,69,55,9.17
Tignère,CM,1605322800,7.3667,12.65,68.72,51,97,1.25
Airai,TL,1605322800,-8.9266,125.4092,82.17,44,0,3.85
Kalabo,ZM,1605322800,-14.97,22.6814,68.07,85,47,4.59
Haines Junction,CA,1605322800,60.7522,-137.5108,17.94,89,97,1.72
Sangar,RU,1605322800,63.9242,127.4739,13.24,95,88,6.91
Cap-aux-Meules,CA,1605322800,47.3821,-61.8597,41.14,77,97,18.72
Dali,CN,1605322800,25.7,100.1833,62.83,67,0,2.06
Liaocheng,CN,1605322800,36.4439,115.9647,64.29,69,36,10.13
Sinnamary,GF,1605322800,5.3833,-52.95,80.1,84,100,10.94
Mount Isa,AU,1605322800,-20.7333,139.5,100.83,31,2,10.13
Sibolga,ID,1605322800,1.7427,98.7792,86.76,71,90,2.57
Saquarema,BR,1605322800,-22.92,-42.5103,75.07,91,95,1.07
Emba,KZ,1605322800,48.8264,58.1442,21.49,94,54,11.81
Humberto de Campos,BR,1605322800,-2.5983,-43.4611,78.39,82,28,5.86
Lebedinyy,RU,1605322800,58.5167,125.5167,20.5,96,100,22.06
Tromsø,NO,1605322800,69.6496,18.957,35.73,78,24,14.72
Ketchikan,US,1605322800,55.3422,-131.6461,36.57,94,62,5.75
Waingapu,ID,1605322800,-9.6567,120.2641,90.27,55,20,10.0
Marsabit,KE,1605322800,2.3284,37.9899,66.18,85,4,11.5
Sagua la Grande,CU,1605322800,22.8067,-80.0756,77.16,91,10,9.91
Prince Rupert,CA,1605322800,54.3161,-130.3201,39.15,81,53,7.18
Kendari,ID,1605322800,-3.945,122.4989,86.99,69,13,5.12
Chinna Salem,IN,1605322800,11.65,78.9,79.86,84,8,9.22
Umluj,SA,1605322800,25.0213,37.2685,72.41,60,0,1.41
Ayagoz,KZ,1605322800,47.9714,80.4392,25.21,87,92,0.54
Kerema,PG,1605322800,-7.9631,145.7785,82.85,72,14,7.31
Teguise,ES,1605322800,29.0605,-13.564,71.87,68,59,4.32
Saquena,PE,1605322800,-4.6667,-73.5167,78.35,74,86,1.95
Nerchinskiy Zavod,RU,1605322800,51.3088,119.61,20.17,93,52,2.24
Piterka,RU,1605322800,50.6803,47.4454,28.65,97,23,9.6
Zhangjiakou,CN,1605322800,40.81,114.8794,43.0,60,100,0.94
Bowen,AU,1605322800,-20.0167,148.2333,84.63,61,64,11.79
Inírida,CO,1605322800,3.8653,-67.9239,73.29,97,100,2.59
Cedar City,US,1605322800,37.6775,-113.0619,43.02,48,45,8.97
Alofi,NU,1605322800,-19.0595,-169.9187,80.02,74,50,17.22
Saint-Ambroise,CA,1605322800,48.5501,-71.3324,36.57,80,100,4.54
Nizhnedevitsk,RU,1605322800,51.5419,38.3657,30.63,86,86,1.16
Tanete,ID,1605322800,-3.9443,119.7848,94.41,56,16,7.92
Los Amates,GT,1605322800,15.2667,-89.1,76.3,69,1,2.19
Constantine,DZ,1605322800,36.365,6.6147,57.2,59,43,4.85
Ramnagar,IN,1605322800,29.4,79.1167,67.93,48,0,2.08
Brawley,US,1605322800,32.9787,-115.5303,65.79,27,1,6.08
Kānt,IN,1605322800,27.8,79.8,69.53,33,0,4.09
San Ignacio,BZ,1605322800,17.1561,-89.0714,74.16,90,11,0.18
Khandyga,RU,1605322800,62.6667,135.6,17.1,96,99,4.52
Parabel',RU,1605322800,58.6978,81.4825,14.72,96,53,3.98
Portland,US,1605322800,45.5234,-122.6762,47.01,69,33,10.13
Buin,CL,1605322800,-33.7333,-70.75,53.55,83,37,1.23
Iquique,CL,1605322800,-20.2208,-70.1431,62.91,69,6,1.81
Udachny,RU,1605322800,66.4167,112.4,0.16,90,94,5.93
Murchison,NZ,1605322800,-41.8,172.3333,67.55,41,16,7.02
Yuzhnyy,RU,1605322800,53.2542,83.6936,27.12,86,44,7.96
Boa Vista,BR,1605322800,2.8197,-60.6733,78.49,84,69,7.63
Souillac,MU,1605322800,-20.5167,57.5167,76.64,86,20,4.09
Igarka,RU,1605322800,67.4667,86.5833,-19.88,87,60,4.74
Pangnirtung,CA,1605322800,66.1451,-65.7125,3.34,82,20,4.16
Comodoro Rivadavia,AR,1605322800,-45.8667,-67.5,63.12,37,18,31.7
Aykino,RU,1605322800,62.2248,49.9922,13.71,95,81,2.98
Huautla,MX,1605322800,21.0333,-98.2833,70.34,91,16,3.74
Nālāgarh,IN,1605322800,31.05,76.7167,66.24,31,49,2.26
Arlit,NE,1605322800,18.7369,7.3853,70.79,27,1,7.67
Chicama,PE,1605322800,-7.8447,-79.1469,63.55,82,70,6.29
Lorengau,PG,1605322800,-2.0226,147.2712,85.8,70,63,7.63
Iralaya,HN,1605322800,15.0,-83.2333,79.99,83,44,12.33
Cravo Norte,CO,1605322800,6.3017,-70.2041,77.09,91,95,4.36
Zavodoukovsk,RU,1605322800,56.5042,66.5515,20.66,97,96,9.78
Vangaindrano,MG,1605322800,-23.35,47.6,68.79,78,95,5.97
Chachapoyas,PE,1605322800,-6.2317,-77.869,56.32,86,100,0.63
Pyatovskiy,RU,1605322800,54.6891,36.0563,30.06,96,47,3.44
Palora,EC,1605322800,-1.7,-77.9333,67.87,95,99,2.59
Maralal,KE,1605322800,1.0968,36.698,57.02,95,28,4.34
Broome,US,1605322800,42.2506,-75.833,38.1,88,47,5.35
Bhīmunipatnam,IN,1605322800,17.8833,83.4333,78.53,72,0,9.24
Mondlo,ZA,1605322800,-27.983,30.7177,62.94,71,0,4.79
Abnūb,EG,1605322800,27.2696,31.1511,60.42,71,0,7.29
Kungurtug,RU,1605322800,50.5994,97.5228,20.12,91,98,1.25
Bukachacha,RU,1605322800,52.9833,116.9167,29.61,91,100,2.04
Coquimbo,CL,1605322800,-29.9533,-71.3436,54.41,87,17,2.06
Lüderitz,NA,1605322800,-26.6481,15.1594,57.61,91,38,4.36
Tarko-Sale,RU,1605322800,64.9225,77.785,-13.99,90,32,4.18
Berlevåg,NO,1605322800,70.8578,29.0864,35.19,87,4,24.67
Mareeba,AU,1605322800,-17.0,145.4333,96.06,43,41,7.16
Praia da Vitória,PT,1605322800,38.7333,-27.0667,64.22,86,65,8.25
Kavaratti,IN,1605322800,10.5669,72.642,82.26,77,99,9.62
Grindavik,IS,1605322800,63.8424,-22.4338,36.7,78,56,20.09
Tamandaré,BR,1605322800,-8.7597,-35.1047,77.36,83,73,8.48
Qax,AZ,1605322800,41.4225,46.9242,41.49,81,34,0.72
Clyde River,CA,1605322800,70.4692,-68.5914,7.32,81,85,4.21
Santa Cruz de Tenerife,ES,1605322800,28.4682,-16.2546,74.28,48,80,15.84
Henties Bay,NA,1605322800,-22.116,14.2845,59.61,90,7,2.62
Peniche,PT,1605322800,39.3558,-9.3811,61.41,89,95,13.29
São João do Piauí,BR,1605322800,-8.3581,-42.2467,80.42,52,6,3.42
Strezhevoy,RU,1605322800,60.7333,77.5889,10.18,94,62,5.55
Altay,CN,1605322800,47.8667,88.1167,34.56,79,71,2.26
Amposta,ES,1605322800,40.7131,0.581,55.58,90,85,2.42
Blackwater,AU,1605322800,-23.5833,148.8833,94.28,38,14,7.45
Tancítaro,MX,1605322800,19.3333,-102.3667,64.33,87,70,1.34
Am Timan,TD,1605322800,11.0297,20.2827,73.26,32,16,5.26
Talaya,RU,1605322800,61.3833,152.75,-0.13,88,100,0.6
Escárcega,MX,1605322800,18.6089,-90.7454,73.47,99,48,1.92
Boulder City,US,1605322800,35.9786,-114.8325,60.58,24,4,14.07
Eyrarbakki,IS,1605322800,63.863,-21.1481,34.39,78,20,15.41
Half Moon Bay,US,1605322800,37.4636,-122.4286,55.65,94,95,6.6
Praia,CV,1605322800,14.9215,-23.5087,77.59,80,43,7.67
General José Eduvigis Díaz,PY,1605322800,-27.1667,-58.4167,75.72,52,0,6.96
Ambulu,ID,1605322800,-8.345,113.6058,87.71,72,15,5.39
Hastings,GB,1605322800,50.8552,0.5729,53.67,83,100,15.35
Shaoyang,CN,1605322800,27.2315,111.4525,68.38,58,0,2.3
Pringsewu,ID,1605322800,-5.3582,104.9744,89.46,70,73,3.56
Shubarshi,KZ,1605322800,48.5872,57.1869,22.66,94,78,12.24
Wagar,SD,1605322800,16.1525,36.2032,70.65,89,0,6.49
Malé,MV,1605322800,4.1748,73.5089,79.72,89,69,16.4
Arrondissement d'Arcachon,FR,1605322800,44.5875,-1.0519,52.86,93,31,8.63
Gongzhuling,CN,1605322800,43.5008,124.8198,47.21,60,14,7.94
Qinzhou,CN,1605322800,21.95,108.6167,67.41,52,77,11.88
Megion,RU,1605322800,61.0296,76.1136,9.39,94,67,7.47
Ugoofaaru,MV,1605322800,5.6667,73.0,80.71,84,100,10.49
Nueve de Julio,AR,1605322800,-35.4444,-60.8831,70.3,74,96,7.05
Mórrope,PE,1605322800,-6.5417,-80.0111,65.17,76,42,14.18
Malakal,SS,1605322800,9.5334,31.6605,80.69,33,69,5.03
North Adams,US,1605322800,42.7009,-73.1087,37.71,90,48,7.25
Colesberg,ZA,1605322800,-30.72,25.0972,69.64,41,13,10.0
Susurluk,TR,1605322800,39.9136,28.1578,53.31,88,62,2.75
Gulu,UG,1605322800,2.7746,32.299,64.63,87,33,2.93
Arrondissement de Montbrison,FR,1605322800,45.6667,4.0833,45.68,85,0,4.45
Dhār,IN,1605322800,22.6,75.3,74.57,66,1,5.86
Mackay,AU,1605322800,-21.15,149.2,84.49,60,22,13.58
Meadow Lake,US,1605322800,34.8014,-106.5436,48.04,41,1,4.5
Barão de Melgaço,BR,1605322800,-16.1944,-55.9675,79.63,65,7,4.27
Anjozorobe,MG,1605322800,-18.4,47.8667,62.4,90,59,7.9
Ilhabela,BR,1605322800,-23.7781,-45.3581,72.32,88,94,2.04
Paamiut,GL,1605322800,61.994,-49.6678,25.92,87,33,34.52
Abhā,SA,1605322800,18.2164,42.5053,56.79,72,2,0.54
Ginda,IN,1605322800,30.6945,78.4932,58.69,59,28,1.45
Brooks,CA,1605322800,50.5834,-111.8851,33.78,85,99,12.86
Marabu,MY,1605322800,4.4148,114.0089,87.89,73,66,3.91
Oranjemund,NA,1605322800,-28.55,16.4333,58.24,93,47,1.97
Margate,GB,1605322800,51.3813,1.3862,53.38,78,100,13.67
Bucine,IT,1605322800,43.4764,11.6148,48.51,92,69,2.62
Aksu,CN,1605322800,41.1231,80.2644,42.46,53,96,4.74
Yokadouma,CM,1605322800,3.5167,15.05,69.22,76,61,1.3
Marovoay,MG,1605322800,-16.1,46.6333,77.79,80,12,4.99
Suntar,RU,1605322800,62.1444,117.6319,17.71,96,100,6.4
Mananjary,MG,1605322800,-21.2167,48.3333,70.74,87,94,8.57
Mandan,US,1605322800,46.8267,-100.8896,31.69,76,29,9.84
Zonguldak,TR,1605322800,41.25,31.8333,46.74,89,49,2.39
Sorong,ID,1605322800,-0.8833,131.25,83.97,76,26,2.62
